{
"type": "FeatureCollection",
"name": "estado_Quintana Roo",
"crs": { "type": "name", "properties": { "name": "urn:ogc:def:crs:OGC:1.3:CRS84" } },
"xy_coordinate_resolution": 1e-15,
"features": [
{ "type": "Feature", "properties": { "nombre": "ETC_42", "localidad": "Kantemó", "municipio": "José María Morelos", "estado": "Quintana Roo", "descripcion": null, "fuente": "Base ETC Peninsula 57.csv", "id": "quintana_roo_1" }, "geometry": { "type": "Point", "coordinates": [ -88.8063, 19.9298 ] } },
{ "type": "Feature", "properties": { "nombre": "ETC_43", "localidad": "Chunhuhub", "municipio": "Felipe Carrillo Puerto", "estado": "Quintana Roo", "descripcion": null, "fuente": "Base ETC Peninsula 57.csv", "id": "quintana_roo_2" }, "geometry": { "type": "Point", "coordinates": [ -88.5933, 19.5855 ] } },
{ "type": "Feature", "properties": { "nombre": "ETC_44", "localidad": "X-pichil", "municipio": "Felipe Carrillo Puerto", "estado": "Quintana Roo", "descripcion": null, "fuente": "Base ETC Peninsula 57.csv", "id": "quintana_roo_3" }, "geometry": { "type": "Point", "coordinates": [ -88.3764, 19.6962 ] } },
{ "type": "Feature", "properties": { "nombre": "ETC_45", "localidad": "Chunyaxche", "municipio": "Felipe Carrillo Puerto", "estado": "Quintana Roo", "descripcion": null, "fuente": "Base ETC Peninsula 57.csv", "id": "quintana_roo_4" }, "geometry": { "type": "Point", "coordinates": [ -87.6492, 19.8542 ] } },
{ "type": "Feature", "properties": { "nombre": "ETC_46", "localidad": "Tihosuco", "municipio": "Felipe Carrillo Puerto", "estado": "Quintana Roo", "descripcion": null, "fuente": "Base ETC Peninsula 57.csv", "id": "quintana_roo_5" }, "geometry": { "type": "Point", "coordinates": [ -88.3726, 20.1944 ] } },
{ "type": "Feature", "properties": { "nombre": "ETC_47", "localidad": "Comunidad de señor", "municipio": "Felipe Carrillo Puerto", "estado": "Quintana Roo", "descripcion": null, "fuente": "Base ETC Peninsula 57.csv", "id": "quintana_roo_6" }, "geometry": { "type": "Point", "coordinates": [ -88.0546, 19.5717 ] } }
]
}
